[
    {
        "id": "58",
        "description": "Service de r\u00e9paration de mat\u00e9riel \u00e9lectronique \u00e0 Paris 75018",
        "title": "ClassMobile",
        "address": "97 Rue Ordener, 75018 Paris, France",
        "thumbnail": "reparateurs\/avatars\/58.png",
        "verified": false,
        "category": "reparateur",
        "likes": "2",
        "lat": "48.8919",
        "lng": "2.3468"
    },
    {
        "id": "60",
        "description": "Service de r\u00e9paration de smartphone rapide",
        "title": "SOS Smartphone",
        "address": "25 Rue de la Reynie, 75001 Paris, France",
        "thumbnail": "reparateurs\/avatars\/60.jpg",
        "verified": false,
        "category": "reparateur",
        "likes": "3",
        "lat": "48.86",
        "lng": "2.34862"
    },
    {
        "id": "61",
        "description": "Service de r\u00e9paration Apple Icare et vente de produit Apple",
        "title": "Apple Champs-\u00c9lys\u00e9es",
        "address": "114 Av. des Champs-\u00c9lys\u00e9es, 75008 Paris, France",
        "thumbnail": "reparateurs\/avatars\/61.jpg",
        "verified": false,
        "category": "reparateur",
        "likes": "4",
        "lat": "48.8722",
        "lng": "2.30132"
    },
    {
        "id": "59",
        "description": "Service de r\u00e9paration de smartphone rapide sous 1h",
        "title": "Save",
        "address": "2 Cour Carr\u00e9e, 75001 Paris, France",
        "thumbnail": "reparateurs\/avatars\/59.png",
        "verified": false,
        "category": "reparateur",
        "likes": "3",
        "lat": "48.8599",
        "lng": "2.33837"
    },
    {
        "id": "57",
        "description": "Service de r\u00e9paration de mat\u00e9riel \u00e9lectronique \u00e0 Paris",
        "title": "Point Service Mobiles Montparnasse",
        "address": "11 Avenue du Maine, 75015 Paris, France",
        "thumbnail": "reparateurs\/avatars\/57.jpg",
        "verified": false,
        "category": "reparateur",
        "likes": "3",
        "lat": "48.8442",
        "lng": "2.32045"
    }
]